{
    "countries": [
      {
        "name": "Algeria",
        "federation": "Federation Algerienne De Tennis",
        "lat": 28.0339,
        "lng": 1.6596,
        "website": "https://fatdz.com/accueil/",
        "socialMedia": {
            "facebook": "https://www.facebook.com/Federation.Algerienne.Tennis/?profile_tab_item_selected=about&_rdr",
            "instagram": "https://www.instagram.com/federation_algerienne_tennis/",
            "twitter": "https://twitter.com/federationalge1/status/1773295761213526124" 
          }
      },
      {
        "name": "Angola",
        "federation": "Federacao Angolana de Tenis",
        "lat": -11.2027,
        "lng": 17.8739,
        "website": "https://ao.tenisintegrado.com/home",
        "socialMedia": {
            "facebook": "",
            "instagram": "https://www.instagram.com/federacao_angolana_de_tenis/",
            "twitter": "https://twitter.com/FAT_AngolaTenis" 
          }
      },
      {
        "name": "Benin",
        "federation": "Federation Beninoise de Tennis",
        "lat": 9.3077,
        "lng": 2.3158,
        "website": "https://www.fedebenintennis.com/",
        "socialMedia": {
            "facebook": "https://www.facebook.com/fedbenintennis/",
            "instagram": "https://www.instagram.com/tennis_benin_fede/",
            "twitter": "" 
          }
      },
      {
        "name": "Botswana",
        "federation": "Botswana Tennis Association",
        "lat": -22.3285,
        "lng": 24.6849,
        "website": "http://tennisbw.org.bw/",
        "socialMedia": {
            "facebook": "https://www.facebook.com/profile.php?id=61555785123264",
            "instagram": "",
            "twitter": "" 
          }
      },
      {
        "name": "Burkina Faso",
        "federation": "Federation Burkinabe de Tennis",
        "lat": 12.2383,
        "lng": -1.5616,
        "website": "",
        "socialMedia": {
            "facebook": "https://www.facebook.com/FBTennisBurkina/",
            "instagram": "",
            "twitter": "" 
          }
      },
      {
        "name": "Burundi",
        "federation": "Federation de Tennis du Burundi",
        "lat": -3.3731,
        "lng": 29.9189,
        "website": "https://tennisburundi.com/",
        "socialMedia": {
            "facebook": "https://www.facebook.com/people/F%C3%A9d%C3%A9ration-de-Tennis-du-Burundi-FTB/100063863408388/",
            "instagram": "https://www.instagram.com/tennis_burundi/",
            "twitter": "https://x.com/burunditennis" 
          }
      },
      {
        "name": "Cabo Verde",
        "federation": "Federacao Cabo Verdinana de Tenis",
        "lat": 16.5388,
        "lng": -23.0418,
        "website": "https://www.coc.cv/federacoes/detalhe-da-federacao/?idfed=237086&fedCode=FED-959d3969-cd47-45ff-aa67-535a55c90167",
        "socialMedia": {
            "facebook": "",
            "instagram": "",
            "twitter": "" 
          }
      },
      {
        "name": "Cameroon",
        "federation": "Federation Camerounaise de Tennis",
        "lat": 7.3697,
        "lng": 12.3547,
        "website": "",
        "socialMedia": {
            "facebook": "https://www.facebook.com/p/Fecatennis-Official-100063918464323/",
            "instagram": "",
            "twitter": "" 
          }
      },
      {
        "name": "Central African Republic",
        "federation": "Federation Centrafricaine de Tennis",
        "lat": 6.6111,
        "lng": 20.9394,
        "website": "",
        "socialMedia": {
            "facebook": "",
            "instagram": "",
            "twitter": "" 
          }
      },
      {
        "name": "Chad",
        "federation": "Federation Tchadienne de Tennis",
        "lat": 15.4542,
        "lng": 18.7322,
        "website": "",
        "socialMedia": {
            "facebook": "",
            "instagram": "",
            "twitter": "" 
          }
      },
      {
        "name": "Comoros",
        "federation": "Federation Comorienne de Tennis",
        "lat": -11.6455,
        "lng": 43.3333,
        "website": "",
        "socialMedia": {
            "facebook": "https://www.facebook.com/p/Federation-comorienne-de-tennis-100054406303563/",
            "instagram": "",
            "twitter": "" 
          }
      },
      {
        "name": "Congo (Brazzaville)",
        "federation": "Federation Congolaise de Tennis",
        "lat": -0.228,
        "lng": 15.8277,
        "website": "",
        "socialMedia": {
            "facebook": "https://www.facebook.com/people/F%C3%A9d%C3%A9ration-Congolaise-de-Tennis/100094520150193/",
            "instagram": "",
            "twitter": "" 
          }
      },
      {
        "name": "Congo (Kinshasa)",
        "federation": "Federation de la Republique Democratique Congolaise de Tennis",
        "lat": -4.0383,
        "lng": 21.7587,
        "website": "",
        "socialMedia": {
            "facebook": "",
            "instagram": "",
            "twitter": "" 
          }
      },
      {
        "name": "Djibouti",
        "federation": "Fédération Djiboutienne de Tennis",
        "lat": 11.8251,
        "lng": 42.5903,
        "website": "",
        "socialMedia": {
            "facebook": "https://www.facebook.com/people/F%C3%A9d%C3%A9ration-Djiboutienne-de-tennis-Officiel/100091963808940/",
            "instagram": "",
            "twitter": "https://x.com/federation34346" 
          }
      },
      {
        "name": "Egypt",
        "federation": "Egyptian Tennis Federation",
        "lat": 26.8206,
        "lng": 30.8025,
        "website": "https://www.egypttennis.com/",
        "socialMedia": {
            "facebook": "https://www.facebook.com/EgyptianTennisFederation/",
            "instagram": "https://www.instagram.com/egyptiantennisfederation/",
            "twitter": "" 
          }
      },
      {
        "name": "Equatorial Guinea",
        "federation": "Federación Ecuatoguineana de Tenis",
        "lat": 1.6508,
        "lng": 10.2679,
        "website": "",
        "socialMedia": {
            "facebook": "",
            "instagram": "",
            "twitter": "" 
          }
      },
      {
        "name": "Eritrea",
        "federation": "Eritrean National Tennis Federation",
        "lat": 15.1794,
        "lng": 39.7823,
        "website": "",
        "socialMedia": {
            "facebook": "",
            "instagram": "",
            "twitter": "" 
          }
      },
      {
        "name": "Eswatini",
        "federation": "Eswatini National Tennis Association",
        "lat": -26.5225,
        "lng": 31.4659,
        "website": "",
        "socialMedia": {
            "facebook": "",
            "instagram": "",
            "twitter": "" 
          }
      },
      {
        "name": "Ethiopia",
        "federation": "Ethiopian Tennis Federation",
        "lat": 9.145,
        "lng": 40.4897,
        "website": "",
        "socialMedia": {
            "facebook": "",
            "instagram": "",
            "twitter": "" 
          }
      },
      {
        "name": "Gabon",
        "federation": "Federation Gabonaise de Tennis",
        "lat": -0.8037,
        "lng": 11.6094,
        "website": "",
        "socialMedia": {
            "facebook": "",
            "instagram": "",
            "twitter": "" 
          }
      },
      {
        "name": "Gambia",
        "federation": "Gambia Lawn Tennis Association",
        "lat": 13.4432,
        "lng": -15.3101,
        "website": "",
        "socialMedia": {
            "facebook": "https://www.facebook.com/p/Gambia-Lawn-Tennis-Association-GLTA-100076044677056/",
            "instagram": "",
            "twitter": "https://twitter.com/lawntennisgmb" 
          }
      },
      {
        "name": "Ghana",
        "federation": "Ghana Tennis Association",
        "lat": 7.9465,
        "lng": -1.0232,
        "website": "https://gtftennis.com/",
        "socialMedia": {
            "facebook": "https://www.facebook.com/gtfghana/",
            "instagram": "",
            "twitter": "" 
          }
      },
      {
        "name": "Guinea",
        "federation": "Federation Guineenne de Tennis",
        "lat": 9.9456,
        "lng": -9.6966,
        "website": "",
        "socialMedia": {
            "facebook": "https://www.facebook.com/p/F%C3%A9deration-Guin%C3%A9enne-de-Tennis-FGT-100087942361757/?_rdr",
            "instagram": "",
            "twitter": "" 
          }
      },
      {
        "name": "Guinea-Bissau",
        "federation": "Federaçao de Tenis da Guine-Bissau",
        "lat": 11.8037,
        "lng": -15.1804,
        "website": "",
        "socialMedia": {
            "facebook": "",
            "instagram": "",
            "twitter": "" 
          }
      },
      {
        "name": "Ivory Coast",
        "federation": "Federation Ivoirienne de Tennis",
        "lat": 7.5399,
        "lng": -5.5471,
        "website": "http://fit-civ.org/",
        "socialMedia": {
            "facebook": "https://www.facebook.com/p/FIT-F%C3%A9d%C3%A9ration-Ivoirienne-de-Tennis-100064324764269/",
            "instagram": "",
            "twitter": "" 
          }
      },
      {
        "name": "Kenya",
        "federation": "Tennis Kenya",
        "lat": -1.2921,
        "lng": 36.8219,
        "website": "https://tenniskenya.sportyhq.com/",
        "socialMedia": {
            "facebook": "https://www.facebook.com/tenniskenyaTK/",
            "instagram": "https://www.instagram.com/tenniskenya/",
            "twitter": "https://twitter.com/tennis_kenya" 
          }
      },
      {
        "name": "Lesotho",
        "federation": "Lesotho Lawn Tennis Association",
        "lat": -29.6099,
        "lng": 28.2336,
        "website": "",
        "socialMedia": {
            "facebook": "https://www.facebook.com/groups/784290028292648/",
            "instagram": "",
            "twitter": "" 
          }
      },
      {
        "name": "Liberia",
        "federation": "Liberia Tennis Association",
        "lat": 6.4281,
        "lng": -9.4295,
        "website": "",
        "socialMedia": {
            "facebook": "",
            "instagram": "",
            "twitter": "" 
          }
      },
      {
        "name": "Libya",
        "federation": "Libyan Arab Tennis Federation",
        "lat": 26.3351,
        "lng": 17.2283,
        "website": "",
        "socialMedia": {
            "facebook": "",
            "instagram": "",
            "twitter": "" 
          }
      },
      {
        "name": "Madagascar",
        "federation": "Federation Malagasy de Tennis",
        "lat": -18.7669,
        "lng": 46.8691,
        "website": "",
        "socialMedia": {
            "facebook": "https://www.facebook.com/fmt.tennismalagasy/",
            "instagram": "",
            "twitter": "" 
          }
      },
      {
        "name": "Malawi",
        "federation": "Lawn Tennis Association of Malawi",
        "lat": -13.2543,
        "lng": 34.3015,
        "website": "",
        "socialMedia": {
            "facebook": "",
            "instagram": "",
            "twitter": "" 
          }
      },
      {
        "name": "Mali",
        "federation": "Federation Malienne de Tennis",
        "lat": 17.5707,
        "lng": -3.9962,
        "website": "",
        "socialMedia": {
            "facebook": "",
            "instagram": "",
            "twitter": "" 
          }
      },
      {
        "name": "Mauritania",
        "federation": "Federation Mauritanienne de Tennis",
        "lat": 21.0079,
        "lng": -10.9408,
        "website": "",
        "socialMedia": {
            "facebook": "",
            "instagram": "",
            "twitter": "" 
          }
      },
      {
        "name": "Mauritius",
        "federation": "Mauritius Tennis Federation",
        "lat": -20.3484,
        "lng": 57.5522,
        "website": "https://mauritiustennis.com/",
        "socialMedia": {
            "facebook": "https://www.facebook.com/MauritiusTennisFederation/",
            "instagram": "https://www.instagram.com/mauritiustennisfederation/",
            "twitter": "" 
          }
      },
      {
        "name": "Morocco",
        "federation": "Federation Royale Marocaine de Tennis",
        "lat": 31.7917,
        "lng": -7.0926,
        "website": "https://www.frmt.ma/",
        "socialMedia": {
            "facebook": "https://www.facebook.com/FRMTENNIS/",
            "instagram": "https://www.instagram.com/frmtennis/?hl=fr",
            "twitter": "https://twitter.com/frmtennis" 
          }
      },
      {
        "name": "Mozambique",
        "federation": "Federacao Mocambicana de Tenis",
        "lat": -18.6657,
        "lng": 35.5296,
        "website": "",
        "socialMedia": {
            "facebook": "https://www.facebook.com/fmtenis",
            "instagram": "",
            "twitter": "" 
          }
      },
      {
        "name": "Namibia",
        "federation": "Namibia Tennis Association",
        "lat": -22.9576,
        "lng": 18.4904,
        "website": "https://tennisnamibia.sportyhq.com/",
        "socialMedia": {
            "facebook": "",
            "instagram": "",
            "twitter": "" 
          }
      },
      {
        "name": "Niger",
        "federation": "Federation Nigérienne de Tennis",
        "lat": 17.6078,
        "lng": 8.0817,
        "website": "",
        "socialMedia": {
            "facebook": "",
            "instagram": "",
            "twitter": "" 
          }
      },
      {
        "name": "Nigeria",
        "federation": "Nigeria Tennis Federation",
        "lat": 9.082,
        "lng": 8.6753,
        "website": "https://ntftennis.com/",
        "socialMedia": {
            "facebook": "",
            "instagram": "",
            "twitter": "https://twitter.com/ntf_tennis" 
          }
      },
      {
        "name": "Rwanda",
        "federation": "Federation Rwandaise de Tennis",
        "lat": -1.9403,
        "lng": 29.8739,
        "website": "https://frtennis.rw/",
        "socialMedia": {
            "facebook": "https://www.facebook.com/p/Rwanda-Tennis-Federation-100063108076113/",
            "instagram": "https://www.instagram.com/tennis_rwanda/",
            "twitter": "https://twitter.com/tennis_rwanda" 
          }
      },
      {
        "name": "Sao Tome and Principe",
        "federation": "São Toméan Tennis Federation",
        "lat": 0.1864,
        "lng": 6.6131,
        "website": "",
        "socialMedia": {
            "facebook": "",
            "instagram": "",
            "twitter": "" 
          }
      },
      {
        "name": "Senegal",
        "federation": "Federation Senegalaise de Tennis",
        "lat": 14.4974,
        "lng": -14.4524,
        "website": "",
        "socialMedia": {
            "facebook": "https://www.facebook.com/p/F%C3%A9d%C3%A9ration-S%C3%A9n%C3%A9galaise-de-Tennis-100048728683819/?locale=pt_BR&_rdr",
            "instagram": "",
            "twitter": "" 
          }
      },
      {
        "name": "Seychelles",
        "federation": "Seychelles Tennis Association",
        "lat": -4.6796,
        "lng": 55.492,
        "website": "Seychelles Tennis Association",
        "socialMedia": {
            "facebook": "",
            "instagram": "",
            "twitter": "" 
          }
      },
      {
        "name": "Sierra Leone",
        "federation": "Sierra Leone Lawn Tennis Association",
        "lat": 8.4606,
        "lng": -11.7799,
        "website": "",
        "socialMedia": {
            "facebook": "",
            "instagram": "",
            "twitter": "" 
          }
      },
      {
        "name": "Somalia",
        "federation": "Somali Tennis Association",
        "lat": 5.1521,
        "lng": 46.1996,
        "website": "",
        "socialMedia": {
            "facebook": "",
            "instagram": "",
            "twitter": "https://twitter.com/tennissomali" 
          }
      },
      {
        "name": "South Africa",
        "federation": "Tennis South Africa",
        "lat": -30.5595,
        "lng": 22.9375,
        "website": "https://www.tennissa.co.za",
        "socialMedia": {
            "facebook": "https://www.facebook.com/TennisSouthAfrica/",
            "instagram": "https://www.instagram.com/tennis__sa/",
            "twitter": "https://twitter.com/tennissa" 
          }
      },
      {
        "name": "South Sudan",
        "federation": "South Sudan Tennis Lawn Association",
        "lat": 6.8769,
        "lng": 31.3069,
        "website": "",
        "socialMedia": {
            "facebook": "https://www.facebook.com/southsudantennis/",
            "instagram": "",
            "twitter": "" 
          }
      },
      {
        "name": "Sudan",
        "federation": "Sudan Tennis Association",
        "lat": 12.8628,
        "lng": 30.2176,
        "website": "https://sudantennis.com/",
        "socialMedia": {
            "facebook": "",
            "instagram": "",
            "twitter": "" 
          }
      },
      {
        "name": "Tanzania",
        "federation": "Tanzania Tennis Association",
        "lat": -6.369,
        "lng": 34.8888,
        "website": "",
        "socialMedia": {
            "facebook": "",
            "instagram": "https://www.instagram.com/tennis_tanzania/",
            "twitter": "" 
          }
      },
      {
        "name": "Togo",
        "federation": "Federation Togolaise de Tennis",
        "lat": 8.6195,
        "lng": 0.8248,
        "website": "https://ftt.tg/",
        "socialMedia": {
            "facebook": "https://www.facebook.com/people/F%C3%A9d%C3%A9ration-Togolaise-de-Tennis/100083420706701/",
            "instagram": "https://www.instagram.com/federation_togolaise_de_tennis/",
            "twitter": "" 
          }
      },
      {
        "name": "Tunisia",
        "federation": "Federation Tunisienne de Tennis",
        "lat": 33.8869,
        "lng": 9.5375,
        "website": "http://www.ftt.tn/",
        "socialMedia": {
            "facebook": "https://www.facebook.com/129984604313837",
            "instagram": "https://www.instagram.com/ftt_officiel/",
            "twitter": "" 
          }
      },
      {
        "name": "Uganda",
        "federation": "Uganda Tennis Association",
        "lat": 1.3733,
        "lng": 32.2903,
        "website": "https://tennisuganda.org/",
        "socialMedia": {
            "facebook": "",
            "instagram": "",
            "twitter": "" 
          }
      },
      {
        "name": "Zambia",
        "federation": "Zambia Tennis Association",
        "lat": -13.1339,
        "lng": 27.8493,
        "website": "",
        "socialMedia": {
            "facebook": "https://www.facebook.com/p/Zambian-Tennis-Association-61553884656266/?locale=en_GB",
            "instagram": "",
            "twitter": "" 
          }
      },
      {
        "name": "Zimbabwe",
        "federation": "Tennis Zimbabwe",
        "lat": -19.0154,
        "lng": 29.1549,
        "website": "",
        "socialMedia": {
            "facebook": "https://www.facebook.com/tenniszim/",
            "instagram": "",
            "twitter": "" 
          }
      }
    ]
  }
  