{
    "countries": [
      {
        "name": "Algeria",
        "federation": "Federation Algerienne De Tennis",
        "lat": 28.0339,
        "lng": 1.6596,
        "website": "https://fatdz.com/accueil/",
        "contact": "+213(0) 23 76 14 26"
      },
      {
        "name": "Angola",
        "federation": "Federacao Angolana de Tenis",
        "lat": -11.2027,
        "lng": 17.8739,
        "website": "https://ao.tenisintegrado.com/home",
        "contact": "+244 (222) 790861"
      },
      {
        "name": "Benin",
        "federation": "Federation Beninoise de Tennis",
        "lat": 9.3077,
        "lng": 2.3158,
        "website": "https://www.fedebenintennis.com/",
        "contact": "+229 95 95 07 34"
      },
      {
        "name": "Botswana",
        "federation": "Botswana Tennis Association",
        "lat": -22.3285,
        "lng": 24.6849,
        "website": "https://www.bnsc.co.bw/node/242",
        "contact": "+267 31 85 859"
      },
      {
        "name": "Burkina Faso",
        "federation": "Federation Burkinabe de Tennis",
        "lat": 12.2383,
        "lng": -1.5616,
        "website": "https://letalon.net/tag/federation-burkinabe-de-tennis-fbt/",
        "contact": "+226 76 70 84 51"
      },
      {
        "name": "Burundi",
        "federation": "Federation de Tennis du Burundi",
        "lat": -3.3731,
        "lng": 29.9189,
        "website": "https://tennisburundi.com/",
        "contact": "+257 22 22 21 20"
      },
      {
        "name": "Cabo Verde",
        "federation": "Federacao Cabo Verdinana de Tenis",
        "lat": 16.5388,
        "lng": -23.0418,
        "website": "https://www.coc.cv/federacoes/detalhe-da-federacao/?idfed=237086&fedCode=FED-959d3969-cd47-45ff-aa67-535a55c90167",
        "contact": "+238 26 13 309"
      },
      {
        "name": "Cameroon",
        "federation": "",
        "lat": 7.3697,
        "lng": 12.3547,
        "website": "",
        "contact": ""
      },
      {
        "name": "Central African Republic",
        "federation": "",
        "lat": 6.6111,
        "lng": 20.9394,
        "website": "",
        "contact": ""
      },
      {
        "name": "Chad",
        "federation": "",
        "lat": 15.4542,
        "lng": 18.7322,
        "website": "",
        "contact": ""
      },
      {
        "name": "Comoros",
        "federation": "",
        "lat": -11.6455,
        "lng": 43.3333,
        "website": "",
        "contact": ""
      },
      {
        "name": "Congo (Brazzaville)",
        "federation": "",
        "lat": -0.228,
        "lng": 15.8277,
        "website": "",
        "contact": ""
      },
      {
        "name": "Congo (Kinshasa)",
        "federation": "",
        "lat": -4.0383,
        "lng": 21.7587,
        "website": "",
        "contact": ""
      },
      {
        "name": "Djibouti",
        "federation": "",
        "lat": 11.8251,
        "lng": 42.5903,
        "website": "",
        "contact": ""
      },
      {
        "name": "Egypt",
        "federation": "",
        "lat": 26.8206,
        "lng": 30.8025,
        "website": "",
        "contact": ""
      },
      {
        "name": "Equatorial Guinea",
        "federation": "",
        "lat": 1.6508,
        "lng": 10.2679,
        "website": "",
        "contact": ""
      },
      {
        "name": "Eritrea",
        "federation": "",
        "lat": 15.1794,
        "lng": 39.7823,
        "website": "",
        "contact": ""
      },
      {
        "name": "Eswatini",
        "federation": "",
        "lat": -26.5225,
        "lng": 31.4659,
        "website": "",
        "contact": ""
      },
      {
        "name": "Ethiopia",
        "federation": "",
        "lat": 9.145,
        "lng": 40.4897,
        "website": "",
        "contact": ""
      },
      {
        "name": "Gabon",
        "federation": "",
        "lat": -0.8037,
        "lng": 11.6094,
        "website": "",
        "contact": ""
      },
      {
        "name": "Gambia",
        "federation": "",
        "lat": 13.4432,
        "lng": -15.3101,
        "website": "",
        "contact": ""
      },
      {
        "name": "Ghana",
        "federation": "",
        "lat": 7.9465,
        "lng": -1.0232,
        "website": "",
        "contact": ""
      },
      {
        "name": "Guinea",
        "federation": "",
        "lat": 9.9456,
        "lng": -9.6966,
        "website": "",
        "contact": ""
      },
      {
        "name": "Guinea-Bissau",
        "federation": "",
        "lat": 11.8037,
        "lng": -15.1804,
        "website": "",
        "contact": ""
      },
      {
        "name": "Ivory Coast",
        "federation": "",
        "lat": 7.5399,
        "lng": -5.5471,
        "website": "",
        "contact": ""
      },
      {
        "name": "Kenya",
        "federation": "",
        "lat": -1.2921,
        "lng": 36.8219,
        "website": "",
        "contact": ""
      },
      {
        "name": "Lesotho",
        "federation": "",
        "lat": -29.6099,
        "lng": 28.2336,
        "website": "",
        "contact": ""
      },
      {
        "name": "Liberia",
        "federation": "",
        "lat": 6.4281,
        "lng": -9.4295,
        "website": "",
        "contact": ""
      },
      {
        "name": "Libya",
        "federation": "",
        "lat": 26.3351,
        "lng": 17.2283,
        "website": "",
        "contact": ""
      },
      {
        "name": "Madagascar",
        "federation": "",
        "lat": -18.7669,
        "lng": 46.8691,
        "website": "",
        "contact": ""
      },
      {
        "name": "Malawi",
        "federation": "",
        "lat": -13.2543,
        "lng": 34.3015,
        "website": "",
        "contact": ""
      },
      {
        "name": "Mali",
        "federation": "",
        "lat": 17.5707,
        "lng": -3.9962,
        "website": "",
        "contact": ""
      },
      {
        "name": "Mauritania",
        "federation": "",
        "lat": 21.0079,
        "lng": -10.9408,
        "website": "",
        "contact": ""
      },
      {
        "name": "Mauritius",
        "federation": "",
        "lat": -20.3484,
        "lng": 57.5522,
        "website": "",
        "contact": ""
      },
      {
        "name": "Morocco",
        "federation": "",
        "lat": 31.7917,
        "lng": -7.0926,
        "website": "",
        "contact": ""
      },
      {
        "name": "Mozambique",
        "federation": "",
        "lat": -18.6657,
        "lng": 35.5296,
        "website": "",
        "contact": ""
      },
      {
        "name": "Namibia",
        "federation": "",
        "lat": -22.9576,
        "lng": 18.4904,
        "website": "",
        "contact": ""
      },
      {
        "name": "Niger",
        "federation": "",
        "lat": 17.6078,
        "lng": 8.0817,
        "website": "",
        "contact": ""
      },
      {
        "name": "Nigeria",
        "federation": "",
        "lat": 9.082,
        "lng": 8.6753,
        "website": "",
        "contact": ""
      },
      {
        "name": "Rwanda",
        "federation": "",
        "lat": -1.9403,
        "lng": 29.8739,
        "website": "",
        "contact": ""
      },
      {
        "name": "Sao Tome and Principe",
        "federation": "",
        "lat": 0.1864,
        "lng": 6.6131,
        "website": "",
        "contact": ""
      },
      {
        "name": "Senegal",
        "federation": "",
        "lat": 14.4974,
        "lng": -14.4524,
        "website": "",
        "contact": ""
      },
      {
        "name": "Seychelles",
        "federation": "",
        "lat": -4.6796,
        "lng": 55.492,
        "website": "",
        "contact": ""
      },
      {
        "name": "Sierra Leone",
        "federation": "",
        "lat": 8.4606,
        "lng": -11.7799,
        "website": "",
        "contact": ""
      },
      {
        "name": "Somalia",
        "federation": "",
        "lat": 5.1521,
        "lng": 46.1996,
        "website": "",
        "contact": ""
      },
      {
        "name": "South Africa",
        "federation": "Tennis South Africa",
        "lat": -30.5595,
        "lng": 22.9375,
        "website": "https://www.tennissa.co.za",
        "contact": ""
      },
      {
        "name": "South Sudan",
        "federation": "",
        "lat": 6.8769,
        "lng": 31.3069,
        "website": "",
        "contact": ""
      },
      {
        "name": "Sudan",
        "federation": "",
        "lat": 12.8628,
        "lng": 30.2176,
        "website": "",
        "contact": ""
      },
      {
        "name": "Tanzania",
        "federation": "",
        "lat": -6.369,
        "lng": 34.8888,
        "website": "",
        "contact": ""
      },
      {
        "name": "Togo",
        "federation": "",
        "lat": 8.6195,
        "lng": 0.8248,
        "website": "",
        "contact": ""
      },
      {
        "name": "Tunisia",
        "federation": "",
        "lat": 33.8869,
        "lng": 9.5375,
        "website": "",
        "contact": ""
      },
      {
        "name": "Uganda",
        "federation": "",
        "lat": 1.3733,
        "lng": 32.2903,
        "website": "",
        "contact": ""
      },
      {
        "name": "Zambia",
        "federation": "",
        "lat": -13.1339,
        "lng": 27.8493,
        "website": "",
        "contact": ""
      },
      {
        "name": "Zimbabwe",
        "federation": "",
        "lat": -19.0154,
        "lng": 29.1549,
        "website": "",
        "contact": ""
      }
    ]
  }
  